[
  {
    "id": 1,
    "name": "Amit Sharma",
    "email": "amit.sharma@example.com",
    "phone": "9123456780",
    "address": {
      "street": "123 MG Road",
      "city": "Mumbai",
      "state": "Maharashtra",
      "zipcode": "400001",
      "geo": {
        "lat": "19.0760",
        "lng": "72.8777"
      }
    }
  },
  {
    "id": 2,
    "name": "Neha Gupta",
    "email": "neha.gupta@example.com",
    "phone": "9876543210",
    "address": {
      "street": "456 Sector 17",
      "city": "Chandigarh",
      "state": "Chandigarh",
      "zipcode": "160017",
      "geo": {
        "lat": "30.7333",
        "lng": "76.7794"
      }
    }
  },
  {
    "id": 3,
    "name": "Rahul Verma",
    "email": "rahul.verma@example.com",
    "phone": "9988776655",
    "address": {
      "street": "789 Park Street",
      "city": "Kolkata",
      "state": "West Bengal",
      "zipcode": "700016",
      "geo": {
        "lat": "22.5726",
        "lng": "88.3639"
      }
    }
  },
  {
    "id": 4,
    "name": "Priya Singh",
    "email": "priya.singh@example.com",
    "phone": "9123987654",
    "address": {
      "street": "321 Janpath",
      "city": "New Delhi",
      "state": "Delhi",
      "zipcode": "110001",
      "geo": {
        "lat": "28.6139",
        "lng": "77.2090"
      }
    }
  },
  {
    "id": 5,
    "name": "Vikram Patel",
    "email": "vikram.patel@example.com",
    "phone": "9876123456",
    "address": {
      "street": "654 Brigade Road",
      "city": "Bangalore",
      "state": "Karnataka",
      "zipcode": "560025",
      "geo": {
        "lat": "12.9716",
        "lng": "77.5946"
      }
    }
  },
  {
    "id": 6,
    "name": "Sneha Rao",
    "email": "sneha.rao@example.com",
    "phone": "9988123456",
    "address": {
      "street": "987 Marine Drive",
      "city": "Chennai",
      "state": "Tamil Nadu",
      "zipcode": "600002",
      "geo": {
        "lat": "13.0827",
        "lng": "80.2707"
      }
    }
  },
  {
    "id": 7,
    "name": "Karan Mehta",
    "email": "karan.mehta@example.com",
    "phone": "9123987654",
    "address": {
      "street": "159 Link Road",
      "city": "Pune",
      "state": "Maharashtra",
      "zipcode": "411001",
      "geo": {
        "lat": "18.5204",
        "lng": "73.8567"
      }
    }
  },
  {
    "id": 8,
    "name": "Anjali Desai",
    "email": "anjali.desai@example.com",
    "phone": "9876543120",
    "address": {
      "street": "753 S.G. Highway",
      "city": "Ahmedabad",
      "state": "Gujarat",
      "zipcode": "380001",
      "geo": {
        "lat": "23.0225",
        "lng": "72.5714"
      }
    }
  },
  {
    "id": 9,
    "name": "Sandeep Kumar",
    "email": "sandeep.kumar@example.com",
    "phone": "9988776655",
    "address": {
      "street": "852 MG Road",
      "city": "Jaipur",
      "state": "Rajasthan",
      "zipcode": "302001",
      "geo": {
        "lat": "26.9124",
        "lng": "75.7873"
      }
    }
  },
  {
    "id": 10,
    "name": "Riya Banerjee",
    "email": "riya.banerjee@example.com",
    "phone": "9123456790",
    "address": {
      "street": "951 Park Avenue",
      "city": "Lucknow",
      "state": "Uttar Pradesh",
      "zipcode": "226001",
      "geo": {
        "lat": "26.8467",
        "lng": "80.9462"
      }
    }
  },
  {
    "id": 11,
    "name": "Deepak Joshi",
    "email": "deepak.joshi@example.com",
    "phone": "9876123987",
    "address": {
      "street": "357 Connaught Place",
      "city": "New Delhi",
      "state": "Delhi",
      "zipcode": "110001",
      "geo": {
        "lat": "28.6333",
        "lng": "77.2167"
      }
    }
  },
  {
    "id": 12,
    "name": "Maya Iyer",
    "email": "maya.iyer@example.com",
    "phone": "9988123498",
    "address": {
      "street": "468 Anna Salai",
      "city": "Chennai",
      "state": "Tamil Nadu",
      "zipcode": "600002",
      "geo": {
        "lat": "13.0827",
        "lng": "80.2707"
      }
    }
  },
  {
    "id": 13,
    "name": "Rohit Malhotra",
    "email": "rohit.malhotra@example.com",
    "phone": "9123987645",
    "address": {
      "street": "579 Shivaji Marg",
      "city": "Mumbai",
      "state": "Maharashtra",
      "zipcode": "400002",
      "geo": {
        "lat": "19.0760",
        "lng": "72.8777"
      }
    }
  },
  {
    "id": 14,
    "name": "Tanvi Singh",
    "email": "tanvi.singh@example.com",
    "phone": "9876543219",
    "address": {
      "street": "684 Lal Bagh Road",
      "city": "Bangalore",
      "state": "Karnataka",
      "zipcode": "560001",
      "geo": {
        "lat": "12.9716",
        "lng": "77.5946"
      }
    }
  },
  {
    "id": 15,
    "name": "Arjun Reddy",
    "email": "arjun.reddy@example.com",
    "phone": "9988776654",
    "address": {
      "street": "795 Residency Road",
      "city": "Kolkata",
      "state": "West Bengal",
      "zipcode": "700017",
      "geo": {
        "lat": "22.5726",
        "lng": "88.3639"
      }
    }
  },
  {
    "id": 16,
    "name": "Sonal Mishra",
    "email": "sonal.mishra@example.com",
    "phone": "9123456798",
    "address": {
      "street": "861 Gandhi Nagar",
      "city": "Lucknow",
      "state": "Uttar Pradesh",
      "zipcode": "226002",
      "geo": {
        "lat": "26.8467",
        "lng": "80.9462"
      }
    }
  },
  {
    "id": 17,
    "name": "Vivek Nair",
    "email": "vivek.nair@example.com",
    "phone": "9876123498",
    "address": {
      "street": "924 Ring Road",
      "city": "Pune",
      "state": "Maharashtra",
      "zipcode": "411001",
      "geo": {
        "lat": "18.5204",
        "lng": "73.8567"
      }
    }
  },
  {
    "id": 18,
    "name": "Ankit Sharma",
    "email": "ankit.sharma@example.com",
    "phone": "9988123490",
    "address": {
      "street": "103 Canal Road",
      "city": "Hyderabad",
      "state": "Telangana",
      "zipcode": "500001",
      "geo": {
        "lat": "17.3850",
        "lng": "78.4867"
      }
    }
  },
  {
    "id": 19,
    "name": "Meera Kulkarni",
    "email": "meera.kulkarni@example.com",
    "phone": "9123987653",
    "address": {
      "street": "214 Park Street",
      "city": "Kolkata",
      "state": "West Bengal",
      "zipcode": "700016",
      "geo": {
        "lat": "22.5726",
        "lng": "88.3639"
      }
    }
  },
  {
    "id": 20,
    "name": "Sameer Khan",
    "email": "sameer.khan@example.com",
    "phone": "9876543211",
    "address": {
      "street": "325 Nehru Place",
      "city": "New Delhi",
      "state": "Delhi",
      "zipcode": "110019",
      "geo": {
        "lat": "28.5672",
        "lng": "77.3216"
      }
    }
  },
  {
    "id": 21,
    "name": "Isha Gupta",
    "email": "isha.gupta@example.com",
    "phone": "9988776644",
    "address": {
      "street": "436 Marine Drive",
      "city": "Chennai",
      "state": "Tamil Nadu",
      "zipcode": "600005",
      "geo": {
        "lat": "13.0827",
        "lng": "80.2707"
      }
    }
  },
  {
    "id": 22,
    "name": "Rishi Kapoor",
    "email": "rishi.kapoor@example.com",
    "phone": "9123456797",
    "address": {
      "street": "547 Civic Center",
      "city": "Ahmedabad",
      "state": "Gujarat",
      "zipcode": "380015",
      "geo": {
        "lat": "23.0225",
        "lng": "72.5714"
      }
    }
  },
  {
    "id": 23,
    "name": "Nisha Reddy",
    "email": "nisha.reddy@example.com",
    "phone": "9876123499",
    "address": {
      "street": "658 Bangalore Palace",
      "city": "Bangalore",
      "state": "Karnataka",
      "zipcode": "560052",
      "geo": {
        "lat": "12.9716",
        "lng": "77.5946"
      }
    }
  },
  {
    "id": 24,
    "name": "Manoj Tiwari",
    "email": "manoj.tiwari@example.com",
    "phone": "9988123488",
    "address": {
      "street": "769 Kamala Nehru Road",
      "city": "Pune",
      "state": "Maharashtra",
      "zipcode": "411002",
      "geo": {
        "lat": "18.5204",
        "lng": "73.8567"
      }
    }
  },
  {
    "id": 25,
    "name": "Sonia Malik",
    "email": "sonia.malik@example.com",
    "phone": "9123987652",
    "address": {
      "street": "870 Sion East",
      "city": "Mumbai",
      "state": "Maharashtra",
      "zipcode": "400030",
      "geo": {
        "lat": "19.0760",
        "lng": "72.8777"
      }
    }
  },
  {
    "id": 26,
    "name": "Pranav Sinha",
    "email": "pranav.sinha@example.com",
    "phone": "9876543222",
    "address": {
      "street": "981 DLF Mall Road",
      "city": "Jaipur",
      "state": "Rajasthan",
      "zipcode": "302001",
      "geo": {
        "lat": "26.9124",
        "lng": "75.7873"
      }
    }
  },
  {
    "id": 27,
    "name": "Lavanya Rao",
    "email": "lavanya.rao@example.com",
    "phone": "9988776633",
    "address": {
      "street": "192 Marine Drive",
      "city": "Chennai",
      "state": "Tamil Nadu",
      "zipcode": "600003",
      "geo": {
        "lat": "13.0827",
        "lng": "80.2707"
      }
    }
  },
  {
    "id": 28,
    "name": "Kunal Singh",
    "email": "kunal.singh@example.com",
    "phone": "9123456796",
    "address": {
      "street": "203 Park Street",
      "city": "Kolkata",
      "state": "West Bengal",
      "zipcode": "700016",
      "geo": {
        "lat": "22.5726",
        "lng": "88.3639"
      }
    }
  },
  {
    "id": 29,
    "name": "Shruti Das",
    "email": "shruti.das@example.com",
    "phone": "9876123489",
    "address": {
      "street": "314 Rajpath",
      "city": "New Delhi",
      "state": "Delhi",
      "zipcode": "110001",
      "geo": {
        "lat": "28.6139",
        "lng": "77.2090"
      }
    }
  },
  {
    "id": 30,
    "name": "Vikas Verma",
    "email": "vikas.verma@example.com",
    "phone": "9988123477",
    "address": {
      "street": "425 Tower Road",
      "city": "Hyderabad",
      "state": "Telangana",
      "zipcode": "500003",
      "geo": {
        "lat": "17.3850",
        "lng": "78.4867"
      }
    }
  },
  {
    "id": 31,
    "name": "Pooja Joshi",
    "email": "pooja.joshi@example.com",
    "phone": "9123987651",
    "address": {
      "street": "536 Canal Bank",
      "city": "Lucknow",
      "state": "Uttar Pradesh",
      "zipcode": "226004",
      "geo": {
        "lat": "26.8467",
        "lng": "80.9462"
      }
    }
  },
  {
    "id": 32,
    "name": "Aakash Nair",
    "email": "aakash.nair@example.com",
    "phone": "9876543233",
    "address": {
      "street": "647 Residency Road",
      "city": "Bangalore",
      "state": "Karnataka",
      "zipcode": "560025",
      "geo": {
        "lat": "12.9716",
        "lng": "77.5946"
      }
    }
  },
  {
    "id": 33,
    "name": "Ritika Sharma",
    "email": "ritika.sharma@example.com",
    "phone": "9988776622",
    "address": {
      "street": "758 Civic Centre",
      "city": "Ahmedabad",
      "state": "Gujarat",
      "zipcode": "380015",
      "geo": {
        "lat": "23.0225",
        "lng": "72.5714"
      }
    }
  },
  {
    "id": 34,
    "name": "Nitin Verma",
    "email": "nitin.verma@example.com",
    "phone": "9123456795",
    "address": {
      "street": "869 Freedom Square",
      "city": "Mumbai",
      "state": "Maharashtra",
      "zipcode": "400004",
      "geo": {
        "lat": "19.0760",
        "lng": "72.8777"
      }
    }
  },
  {
    "id": 35,
    "name": "Anita Kulkarni",
    "email": "anita.kulkarni@example.com",
    "phone": "9876123478",
    "address": {
      "street": "980 East Road",
      "city": "Chennai",
      "state": "Tamil Nadu",
      "zipcode": "600010",
      "geo": {
        "lat": "13.0827",
        "lng": "80.2707"
      }
    }
  },
  {
    "id": 36,
    "name": "Saurabh Mehta",
    "email": "saurabh.mehta@example.com",
    "phone": "9988123466",
    "address": {
      "street": "109 Lotus Temple",
      "city": "Delhi",
      "state": "Delhi",
      "zipcode": "110017",
      "geo": {
        "lat": "28.6139",
        "lng": "77.2089"
      }
    }
  },
  {
    "id": 37,
    "name": "Rhea Banerjee",
    "email": "rhea.banerjee@example.com",
    "phone": "9123987643",
    "address": {
      "street": "220 Eden Gardens",
      "city": "Kolkata",
      "state": "West Bengal",
      "zipcode": "700016",
      "geo": {
        "lat": "22.5726",
        "lng": "88.3639"
      }
    }
  },
  {
    "id": 38,
    "name": "Abhishek Singh",
    "email": "abhishek.singh@example.com",
    "phone": "9876543244",
    "address": {
      "street": "331 Amaravati Colony",
      "city": "Pune",
      "state": "Maharashtra",
      "zipcode": "411004",
      "geo": {
        "lat": "18.5204",
        "lng": "73.8567"
      }
    }
  },
  {
    "id": 39,
    "name": "Shraddha Reddy",
    "email": "shraddha.reddy@example.com",
    "phone": "9988776611",
    "address": {
      "street": "442 Necklace Road",
      "city": "Hyderabad",
      "state": "Telangana",
      "zipcode": "500063",
      "geo": {
        "lat": "17.3850",
        "lng": "78.4867"
      }
    }
  },
  {
    "id": 40,
    "name": "Gaurav Joshi",
    "email": "gaurav.joshi@example.com",
    "phone": "9123456794",
    "address": {
      "street": "553 Chetan Bhagat Avenue",
      "city": "Jaipur",
      "state": "Rajasthan",
      "zipcode": "302004",
      "geo": {
        "lat": "26.9124",
        "lng": "75.7873"
      }
    }
  },
  {
    "id": 41,
    "name": "Ankita Das",
    "email": "ankita.das@example.com",
    "phone": "9876123467",
    "address": {
      "street": "664 Salt Lake Stadium",
      "city": "Kolkata",
      "state": "West Bengal",
      "zipcode": "700091",
      "geo": {
        "lat": "22.5726",
        "lng": "88.3639"
      }
    }
  },
  {
    "id": 42,
    "name": "Varun Sharma",
    "email": "varun.sharma@example.com",
    "phone": "9988123456",
    "address": {
      "street": "775 IT Park",
      "city": "Bangalore",
      "state": "Karnataka",
      "zipcode": "560100",
      "geo": {
        "lat": "12.9716",
        "lng": "77.5946"
      }
    }
  },
  {
    "id": 43,
    "name": "Snehal Patel",
    "email": "snehal.patel@example.com",
    "phone": "9123987642",
    "address": {
      "street": "886 Vivekananda Road",
      "city": "Ahmedabad",
      "state": "Gujarat",
      "zipcode": "380015",
      "geo": {
        "lat": "23.0225",
        "lng": "72.5714"
      }
    }
  },
  {
    "id": 44,
    "name": "Karan Malhotra",
    "email": "karan.malhotra@example.com",
    "phone": "9876543255",
    "address": {
      "street": "997 Jaipur Junction",
      "city": "Jaipur",
      "state": "Rajasthan",
      "zipcode": "302006",
      "geo": {
        "lat": "26.9124",
        "lng": "75.7873"
      }
    }
  },
  {
    "id": 45,
    "name": "Rekha Singh",
    "email": "rekha.singh@example.com",
    "phone": "9988776600",
    "address": {
      "street": "108 Gandhi Nagar",
      "city": "Lucknow",
      "state": "Uttar Pradesh",
      "zipcode": "226005",
      "geo": {
        "lat": "26.8467",
        "lng": "80.9462"
      }
    }
  },
  {
    "id": 46,
    "name": "Siddharth Verma",
    "email": "siddharth.verma@example.com",
    "phone": "9123456793",
    "address": {
      "street": "219 Janpath",
      "city": "New Delhi",
      "state": "Delhi",
      "zipcode": "110011",
      "geo": {
        "lat": "28.6139",
        "lng": "77.2090"
      }
    }
  },
  {
    "id": 47,
    "name": "Meghana Rao",
    "email": "meghana.reddy@example.com",
    "phone": "9876123456",
    "address": {
      "street": "330 Anna Nagar",
      "city": "Chennai",
      "state": "Tamil Nadu",
      "zipcode": "600040",
      "geo": {
        "lat": "13.0827",
        "lng": "80.2707"
      }
    }
  },
  {
    "id": 48,
    "name": "Tarun Kapoor",
    "email": "tarun.kapoor@example.com",
    "phone": "9988123444",
    "address": {
      "street": "441 Fort Road",
      "city": "Mumbai",
      "state": "Maharashtra",
      "zipcode": "400054",
      "geo": {
        "lat": "19.0760",
        "lng": "72.8777"
      }
    }
  },
  {
    "id": 49,
    "name": "Divya Mehta",
    "email": "divya.mehta@example.com",
    "phone": "9123987631",
    "address": {
      "street": "552 Sector 25",
      "city": "Chandigarh",
      "state": "Chandigarh",
      "zipcode": "160025",
      "geo": {
        "lat": "30.7333",
        "lng": "76.7794"
      }
    }
  },
  {
    "id": 50,
    "name": "Rajat Sinha",
    "email": "rajat.sinha@example.com",
    "phone": "9876543266",
    "address": {
      "street": "663 IT Park",
      "city": "Bangalore",
      "state": "Karnataka",
      "zipcode": "560100",
      "geo": {
        "lat": "12.9716",
        "lng": "77.5946"
      }
    }
  }
]
